City_ID,City,Lat,Lng,Max Temp,Humidity,Cloudiness,Wind Speed,Country,Date
0,san patricio,28.017,-97.5169,87.75,49,59,13.65,US,1685225386
1,broken hill,-31.95,141.4333,48.18,69,65,10.27,AU,1685225386
2,olonkinbyen,70.9221,-8.7187,31.01,72,54,15.88,SJ,1685225387
3,port-aux-francais,-49.35,70.2167,41.47,87,100,32.91,TF,1685225387
4,at taj,24.2049,23.2857,74.98,36,0,17.81,LY,1685225387
5,trincomalee,8.5711,81.2335,82.27,79,81,17.56,LK,1685225388
6,blackmans bay,-43.0167,147.3167,49.73,89,100,3.31,AU,1685225388
7,dudinka,69.4058,86.1778,40.62,82,30,16.75,RU,1685225388
8,cannonvale,-20.2833,148.7,67.39,61,21,11.05,AU,1685225388
9,waitangi,-43.9535,-176.5597,59.83,94,70,1.99,NZ,1685225389
10,vadso,70.0744,29.7487,41.88,80,97,3.44,NO,1685225389
11,port elizabeth,-33.918,25.5701,56.32,59,0,1.99,ZA,1685225389
12,hilo,19.7297,-155.09,82.27,71,40,8.05,US,1685225117
13,grytviken,-54.2811,-36.5092,32.83,85,92,13.62,GS,1685225390
14,whitehorse,60.7161,-135.0538,48.31,49,100,15.01,CA,1685225292
15,irtyshsk,53.3333,75.4572,49.24,44,1,2.75,KZ,1685225390
16,puerto natales,-51.7236,-72.4875,34.9,86,97,6.69,CL,1685225302
17,enewetak,11.3474,162.3373,81.75,79,100,15.57,MH,1685225391
18,tolanaro,-25.0319,46.9987,70.7,88,100,11.72,MG,1685225391
19,alesund,62.4723,6.1549,48.33,81,100,31.07,NO,1685225391
20,ketchikan,55.3422,-131.6461,50.47,81,100,11.5,US,1685225392
21,nyurba,63.2842,118.3319,44.51,92,100,6.53,RU,1685225392
22,port mathurin,-19.6833,63.4167,77.67,72,99,18.97,MU,1685225392
23,iqaluit,63.7506,-68.5145,27.7,63,100,5.99,CA,1685225392
24,berezovyy,51.6667,135.7,41.02,78,100,6.91,RU,1685225393
25,avarua,-21.2078,-159.775,78.85,83,40,14.97,CK,1685225393
26,autazes,-3.5797,-59.1306,80.96,73,100,2.75,BR,1685225393
27,laguna,38.421,-121.4238,83.32,50,0,10.36,US,1685225394
28,klyuchi,52.2667,79.1667,46.58,53,34,8.5,RU,1685225394
29,yellowknife,62.456,-114.3525,66.79,30,9,12.5,CA,1685225267
30,loiza,18.4313,-65.8802,86.29,74,40,11.5,PR,1685225395
31,bandrele,-12.9067,45.1914,76.75,83,0,5.75,YT,1685225395
32,buka,40.8108,69.1986,68.99,24,0,3.0,UZ,1685225395
33,siocon,7.7061,122.1353,79.79,88,98,6.31,PH,1685225395
34,adamstown,-25.066,-130.1015,73.51,74,35,22.84,PN,1685225396
35,camocim,-2.9022,-40.8411,78.44,88,32,9.24,BR,1685225396
36,tranqueras,-31.2,-55.75,54.84,60,97,6.69,UY,1685225396
37,las heras,-46.5419,-68.9359,35.85,55,66,12.53,AR,1685225396
38,jamestown,42.097,-79.2353,76.51,37,0,10.36,US,1685225110
39,aasiaat,68.7098,-52.8699,24.93,69,97,15.59,GL,1685225397
40,kotlas,61.2611,46.6556,55.27,67,98,6.46,RU,1685225397
41,hawaiian paradise park,19.5933,-154.9731,80.11,76,40,8.05,US,1685225397
42,richards bay,-28.783,32.0377,67.69,80,9,11.83,ZA,1685225398
43,papatowai,-46.5619,169.4708,50.0,65,97,7.16,NZ,1685225398
44,novaya igirma,57.1334,103.9112,44.56,74,100,3.85,RU,1685225398
45,albany,42.6001,-73.9662,80.46,32,0,1.01,US,1685225398
46,talcahuano,-36.7167,-73.1167,49.68,71,0,5.75,CL,1685225399
47,port saint john's,-31.6229,29.5448,60.98,74,0,7.52,ZA,1685225399
48,qaqortoq,60.7167,-46.0333,38.5,67,100,6.85,GL,1685225399
49,kavali,14.9167,79.9833,89.44,46,22,6.91,IN,1685225400
50,constantia,44.1833,28.65,61.7,92,27,7.61,RO,1685225400
51,angaur state,6.906,134.13,83.62,80,100,24.83,PW,1685225401
52,mildura,-34.2,142.15,50.07,93,100,13.62,AU,1685225401
53,labrador city,52.9463,-66.9114,66.67,25,85,6.78,CA,1685225401
54,invercargill,-46.4,168.35,47.41,71,99,5.7,NZ,1685225403
55,muroto-misakicho,33.2833,134.15,68.05,77,91,3.98,JP,1685225403
56,kismayo,-0.3582,42.5454,78.91,79,93,12.41,SO,1685225405
57,labytnangi,66.6572,66.4183,50.95,75,100,16.11,RU,1685225406
58,howrah,22.5892,88.3103,82.4,89,40,0.0,IN,1685225408
59,xinqing,48.2333,129.5,49.08,68,1,6.4,CN,1685225408
60,ushuaia,-54.8,-68.3,42.46,75,75,24.16,AR,1685225409
61,boksitogorsk,59.474,33.8485,34.61,72,92,4.74,RU,1685225410
62,uturoa,-16.7333,-151.4333,81.63,72,45,22.26,PF,1685225411
63,napier,-39.4833,176.9167,55.27,85,14,1.01,NZ,1685225276
64,purpe,64.4803,76.6897,53.15,52,0,13.78,RU,1685225412
65,kangiwa,12.5521,3.8187,96.15,29,98,8.72,NG,1685225412
66,nenjiang,49.1833,125.2167,50.07,67,90,9.64,CN,1685225413
67,glace bay,46.1969,-59.957,61.77,64,0,1.99,CA,1685225413
68,sovetskiy,61.3614,63.5842,63.36,68,98,5.53,RU,1685225415
69,carnarvon,-24.8667,113.6333,67.57,31,100,13.62,AU,1685225415
70,rio grande,-32.035,-52.0986,59.11,62,24,16.87,BR,1685225417
71,starobaltachevo,56.0013,55.9213,64.63,61,96,5.53,RU,1685225418
72,lata,40.1629,-8.3327,62.92,97,100,1.21,PT,1685225419
73,bilibino,68.0546,166.4372,43.74,44,6,16.64,RU,1685225419
74,olyokminsk,60.3736,120.4264,44.6,74,90,6.31,RU,1685225420
75,maxixe,-23.8597,35.3472,67.06,81,100,4.61,MZ,1685225420
76,nova sintra,14.8667,-24.7167,69.94,84,61,18.01,CV,1685225421
77,bredasdorp,-34.5322,20.0403,48.94,76,31,3.69,ZA,1685225421
78,arangaon,18.6667,75.1833,81.09,52,0,10.78,IN,1685225422
79,hopelchen,19.7667,-89.85,94.12,32,96,9.91,MX,1685225422
80,sitka,57.0531,-135.33,53.49,66,100,13.8,US,1685225423
81,georgetown,5.4112,100.3354,82.33,83,20,0.0,MY,1685225251
82,mount isa,-20.7333,139.5,38.97,70,5,6.91,AU,1685225424
83,vilyuchinsk,52.9306,158.4028,46.67,73,99,1.95,RU,1685225424
84,bereznik,62.8551,42.7072,49.24,63,99,7.31,RU,1685225425
85,fisterra,42.9049,-9.2629,61.75,92,77,3.91,ES,1685225426
86,lamu,-2.2717,40.902,79.02,83,97,11.81,KE,1685225426
87,valparaiso,-33.0393,-71.6273,61.0,72,0,6.91,CL,1685225274
88,lebu,-37.6167,-73.65,47.07,79,76,13.8,CL,1685225427
89,ribeira grande,38.5167,-28.7,62.78,84,82,14.0,PT,1685225428
90,tiksi,71.6872,128.8694,35.91,97,100,13.2,RU,1685225429
91,chalfont st giles,51.6318,-0.5703,56.71,77,7,6.91,GB,1685225429
92,okhotsk,59.3833,143.3,50.18,49,100,11.77,RU,1685225430
93,chibougamau,49.9168,-74.3659,78.64,37,14,12.82,CA,1685225374
94,margaret river,-33.95,115.0667,57.43,75,41,4.99,AU,1685225430
95,puerto ayora,-0.7393,-90.3518,85.96,92,76,8.01,EC,1685225431
96,longyearbyen,78.2186,15.6401,30.04,47,0,3.44,SJ,1685225431
97,port lincoln,-34.7333,135.8667,58.96,80,12,15.7,AU,1685225432
98,carauari,-4.8828,-66.8958,78.1,94,50,1.66,BR,1685225432
99,thompson,55.7435,-97.8558,70.39,41,0,2.53,CA,1685225433
100,anaco,9.4389,-64.4728,85.91,61,100,3.78,VE,1685225434
101,sen monorom,12.45,107.2,68.38,99,100,1.25,KH,1685225434
102,ushtobe,45.2514,77.9838,56.7,73,87,4.38,KZ,1685225435
103,edinburgh of the seven seas,-37.0676,-12.3116,54.21,54,42,4.54,SH,1685225435
104,mersa matruh,31.3525,27.2453,68.05,83,51,15.7,EG,1685225437
105,fortaleza,-3.7227,-38.5247,82.53,78,0,5.75,BR,1685225198
106,errachidia,31.9275,-4.4285,66.56,50,21,8.48,MA,1685225438
107,pont-du-chateau,45.8008,3.2501,62.26,82,0,2.3,FR,1685225439
108,bungoma,0.5635,34.5606,61.77,88,100,3.53,KE,1685225439
109,badger,64.8,-147.5333,64.99,33,0,6.91,US,1685225439
110,stanley,54.868,-1.6985,55.89,81,20,6.91,GB,1685225440
111,kaiama,9.6225,3.9481,78.57,78,99,6.58,NG,1685225441
112,ciudad lazaro cardenas,17.9583,-102.2,88.2,59,1,9.71,MX,1685225441
113,commerce,34.0006,-118.1598,79.54,61,75,11.5,US,1685225442
114,tura,25.5198,90.2201,69.26,85,1,2.44,IN,1685225442
115,tezu,27.9167,96.1667,70.52,67,28,3.44,IN,1685225442
116,mercedes,-34.6515,-59.4307,49.86,56,75,7.34,AR,1685225443
117,toba,34.4833,136.85,68.0,73,91,5.61,JP,1685225443
118,vernon,50.2581,-119.2691,84.92,26,66,4.63,CA,1685225444
119,lazaro cardenas,17.9583,-102.2,88.2,59,1,9.71,MX,1685225371
120,beaver dam,43.4578,-88.8373,76.21,21,0,8.05,US,1685225444
121,bullsbrook,-31.6667,116.0,46.54,87,100,2.3,AU,1685225445
122,west island,-12.1568,96.8225,78.78,83,40,4.61,CC,1685225445
123,ilulissat,69.2167,-51.1,24.1,76,75,18.37,GL,1685225450
124,mugia,43.1041,-9.2179,61.92,92,59,4.72,ES,1685225451
125,chonchi,-42.6128,-73.8092,38.41,89,70,2.62,CL,1685225451
126,siwa oasis,29.2041,25.5195,73.51,56,12,14.47,EG,1685225451
127,kiruna,67.8557,20.2251,41.92,87,100,10.36,SE,1685225452
128,khandyga,62.6667,135.6,48.29,73,35,2.89,RU,1685225452
129,talnakh,69.4865,88.3972,40.21,82,66,9.84,RU,1685225453
130,sarauli,28.5,79.1,77.29,58,0,3.89,IN,1685225453
131,gobabis,-22.45,18.9667,70.43,29,98,9.78,NA,1685225453
132,petropavlovsk-kamchatsky,53.0452,158.6483,45.19,76,75,2.24,RU,1685225454
133,sechura,-5.5569,-80.8222,82.13,60,75,16.55,PE,1685225454
134,udachny,66.4167,112.4,50.45,66,93,5.64,RU,1685225460
135,weno,7.4515,151.8468,84.15,84,100,9.22,FM,1685225460
136,san luis de la loma,17.2706,-100.8939,89.65,54,6,9.24,MX,1685225460
137,muskogee,35.5834,-95.3336,83.98,40,0,0.0,US,1685225415
138,balad,34.0164,44.1453,85.57,17,32,7.02,IQ,1685225461
139,queenstown,-31.8976,26.8753,46.22,33,0,5.26,ZA,1685225461
140,chui,-33.6971,-53.4616,54.0,61,74,13.02,UY,1685225461
141,phulbani,20.4667,84.2333,78.3,52,2,3.13,IN,1685225462
142,hermanus,-34.4187,19.2345,49.8,58,68,3.8,ZA,1685225463
143,kurumkan,54.3,110.3,47.77,67,100,2.51,RU,1685225463
144,bardai,11.65,7.2333,83.14,56,100,11.63,NG,1685225464
145,san juan de miraflores,-12.1629,-76.9635,74.17,71,99,7.43,PE,1685225464
146,aurangabad,19.8833,75.3333,78.91,58,0,11.92,IN,1685225465
147,bandar-e genaveh,29.5791,50.517,85.05,51,15,5.55,IR,1685225466
148,portland,45.5234,-122.6762,76.66,54,79,5.99,US,1685224878
149,ar ruseris,11.8659,34.3869,78.94,66,100,7.29,SD,1685225467
150,luanda,-8.8368,13.2343,73.62,87,45,6.38,AO,1685225338
151,remire-montjoly,4.9167,-52.2667,77.04,94,0,2.3,GF,1685225469
152,bethel,41.3712,-73.414,78.4,41,0,8.05,US,1685225331
153,mogadishu,2.0371,45.3438,79.12,75,90,12.71,SO,1685225469
154,nyagan,62.1406,65.3936,60.22,87,98,7.63,RU,1685225470
155,novyy urgal,51.0736,132.5642,44.78,94,100,5.28,RU,1685225470
156,aitape,-3.1374,142.3475,79.12,87,94,4.07,PG,1685225471
157,harper,4.375,-7.7169,80.2,86,100,7.61,LR,1685225471
158,fale old settlement,-9.3852,-171.2468,83.37,77,31,11.48,TK,1685225472
159,carignano,44.9069,7.6732,68.72,82,100,2.66,IT,1685225472
160,coahuayana de hidalgo,18.7,-103.6583,90.63,51,0,8.05,MX,1685225473
161,bocaiuva,-17.1078,-43.815,72.9,41,70,1.99,BR,1685225473
162,dawesville,30.9224,-84.0091,80.67,44,0,10.36,US,1685225474
163,haiku-pauwela,20.9219,-156.3051,80.62,54,20,17.27,US,1685225474
164,yima,34.7381,111.8839,60.19,97,100,2.57,CN,1685225475
165,gundlupet,11.8,76.6833,71.91,82,28,3.91,IN,1685225476
166,wacheng,33.7833,114.5167,64.58,94,100,10.04,CN,1685225476
167,rancho palos verdes,33.7445,-118.387,74.98,75,75,14.97,US,1685225476
168,copala,16.65,-98.9833,88.12,61,16,8.93,MX,1685225477
169,strezhevoy,60.7333,77.5889,50.95,51,9,6.06,RU,1685225478
170,coronel dorrego,-38.7187,-61.2873,43.36,51,0,1.74,AR,1685225478
171,utrik,11.2278,169.8474,80.37,81,100,15.12,MH,1685225479
172,east london,-33.0153,27.9116,59.65,40,0,6.46,ZA,1685225480
173,santa cruz,-17.8,-63.1667,82.45,74,75,8.05,BO,1685225194
174,poli,-3.3333,36.8,57.31,91,89,5.37,TZ,1685225482
175,makaha,21.4694,-158.2175,84.11,55,0,4.41,US,1685225482
176,isafjordur,66.0755,-23.124,41.65,80,22,12.41,IS,1685225483
177,wailua homesteads,22.0669,-159.378,79.23,74,20,10.36,US,1685225483
178,bure,10.7,37.0667,65.43,72,100,0.56,ET,1685225484
179,la'ie,21.6477,-157.9253,84.16,61,2,8.08,US,1685225484
180,price,39.5994,-110.8107,74.12,18,0,6.91,US,1685225485
181,anadyr,64.75,177.4833,39.0,69,0,6.71,RU,1685225486
182,bagnes,46.0833,7.2167,66.51,53,75,3.44,CH,1685225486
183,columbia falls,48.3725,-114.1815,64.42,71,0,0.0,US,1685225283
184,gore,-46.1028,168.9436,45.81,77,99,2.39,NZ,1685225488
185,puerto leguizamo,-0.1934,-74.7819,78.4,92,91,2.77,CO,1685225488
186,santa rosa,14.3122,121.1114,82.38,90,79,4.12,PH,1685225489
187,lihue,21.9789,-159.3672,79.84,70,20,10.36,US,1685225490
188,nantucket,41.2835,-70.0995,68.09,60,0,14.97,US,1685225490
189,el haouaria,37.05,11.0144,65.61,78,0,3.33,TN,1685225491
190,tazovsky,67.4667,78.7,50.34,62,34,14.52,RU,1685225492
191,ust-nera,64.5667,143.2,44.82,61,17,0.56,RU,1685225493
192,mozhaysk,55.5019,36.0272,43.86,69,5,8.23,RU,1685225493
193,kudahuvadhoo,2.6708,72.8944,82.81,76,86,8.66,MV,1685225494
194,simanggang,1.2472,111.4528,73.83,99,98,1.03,MY,1685225494
195,rantauprapat,2.1,99.8333,72.23,96,87,2.21,ID,1685225495
196,lerwick,60.1545,-1.1494,48.2,74,16,19.62,GB,1685225495
197,kavieng,-2.5744,150.7967,82.45,78,38,6.85,PG,1685225496
198,hasaki,35.7333,140.8333,68.29,69,98,11.34,JP,1685225496
199,mirpur sakro,24.5474,67.6277,82.15,86,16,18.81,PK,1685225497
200,katsuren-haebaru,26.3369,127.8719,77.02,88,72,17.22,JP,1685225497
201,st. john's,47.5649,-52.7093,46.92,87,100,12.57,CA,1685225253
202,aioun,16.6614,-9.6149,94.39,22,100,9.37,MR,1685225498
203,ternate,0.8,127.4,80.98,75,100,7.83,ID,1685225499
204,tateyama,34.9833,139.8667,67.28,71,63,10.25,JP,1685225499
205,iskateley,67.6803,53.1512,45.99,74,86,5.21,RU,1685225500
206,velikiy novgorod,58.5167,31.2833,40.98,71,6,6.02,RU,1685225501
207,wamba,8.9333,8.6,76.28,90,78,0.94,NG,1685225501
208,sao vicente,-23.9631,-46.3919,83.26,26,53,1.01,BR,1685225502
209,toliara,-23.35,43.6667,69.91,64,95,6.11,MG,1685225503
210,cidreira,-30.1811,-50.2056,65.75,80,100,18.59,BR,1685225503
211,kachug,53.9606,105.8817,42.94,78,97,0.65,RU,1685225504
212,jalqani,12.4486,34.2186,83.05,50,100,15.52,SD,1685225504
213,serdar,38.9764,56.2757,81.28,24,77,8.12,TM,1685225504
214,umluj,25.0213,37.2685,82.78,69,69,11.61,SA,1685225505
215,vorgashor,67.5833,63.95,49.8,87,100,4.97,RU,1685225505
216,esquel,-42.9,-71.3167,29.95,77,15,2.1,AR,1685225505
217,iwanai,42.9744,140.5089,64.63,63,100,5.99,JP,1685225506
218,takab,36.4009,47.1133,55.27,56,6,2.73,IR,1685225506
219,taroa,8.7058,171.2275,82.56,80,94,14.99,MH,1685225507
220,bel ombre,-4.6167,55.4167,82.24,74,40,13.8,SC,1685225507
221,cullman,34.1748,-86.8436,79.11,53,0,6.91,US,1685225507
222,dalandzadgad,43.5708,104.425,50.4,65,65,5.01,MN,1685225508
223,pekan,3.4836,103.3996,76.17,94,97,4.74,MY,1685225508
224,borger,52.9233,6.7931,54.0,86,0,6.87,NL,1685225508
225,hirara,24.8,125.2833,77.88,90,77,18.54,JP,1685225509
226,la passe,45.5549,-0.8967,71.83,87,5,9.01,FR,1685225509
227,harstad,68.799,16.5293,45.81,100,100,18.99,NO,1685225509
228,tweed heads,-28.1817,153.547,59.0,94,8,2.3,AU,1685225357
229,new norfolk,-42.7826,147.0587,50.92,67,89,5.99,AU,1685225510
230,afaahiti,-17.75,-149.2833,82.27,76,47,19.86,PF,1685225510
231,rongelap,11.1635,166.8941,81.81,78,100,16.22,MH,1685225510
232,port alfred,-33.5906,26.891,60.98,40,0,7.94,ZA,1685225511
233,mariehamn,60.0973,19.9348,51.66,76,0,17.27,AX,1685225511
234,tongouson,5.0214,120.1328,82.78,76,98,6.4,PH,1685225511
235,hamilton,39.1834,-84.5333,75.97,38,0,11.5,US,1685225461
236,yanchep,-31.55,115.6833,46.62,64,100,4.18,AU,1685225512
237,abepura,-2.6333,140.5833,77.81,89,40,2.3,ID,1685225512
238,jeddah,21.5169,39.2192,93.06,49,0,3.44,SA,1685225512
239,tazacorte,28.629,-17.9293,68.97,85,75,5.75,ES,1685225513
240,obo,5.3998,26.4869,72.25,82,90,3.89,CF,1685225513
241,shitanjing,39.2342,106.3439,63.34,47,98,4.34,CN,1685225513
242,nagqu,31.5,92.0,34.36,81,98,4.88,CN,1685225514
243,puerto baquerizo moreno,-0.9,-89.6,81.59,78,40,17.27,EC,1685225514
244,cururupu,-1.8283,-44.8683,76.06,92,32,2.86,BR,1685225515
245,ha'il,27.5219,41.6907,81.14,13,73,9.82,SA,1685225515
246,nar'yan-mar,67.6713,53.087,46.06,74,86,5.17,RU,1685225515
247,bangui,4.3612,18.555,71.67,95,100,3.6,CF,1685225516
248,tsiombe,-25.3,45.4833,67.91,93,100,5.61,MG,1685225516
249,holualoa,19.6228,-155.9522,78.78,75,0,10.36,US,1685225516
250,pichucalco,17.5167,-93.0667,96.39,28,15,9.6,MX,1685225516
251,college,64.8569,-147.8028,65.08,34,40,6.91,US,1685225517
252,rmi capitol,7.0893,171.3805,83.25,78,91,14.65,MH,1685225517
253,heroica caborca,30.7167,-112.15,92.86,9,4,18.32,MX,1685225517
254,bakchar,57.0186,82.0711,45.41,55,92,3.89,RU,1685225518
255,kapa'a,22.0752,-159.319,80.58,74,20,10.36,US,1685225518
256,tobelo,1.7284,128.0095,79.23,81,100,8.46,ID,1685225518
257,sabang,5.8933,95.3214,83.97,73,12,20.24,ID,1685225518
258,veinticinco de mayo,-35.4323,-60.1727,42.98,58,99,6.35,AR,1685225519
259,adrar,20.5022,-10.0711,81.54,45,98,11.97,MR,1685225519
260,yatou,37.15,122.3833,62.91,97,100,3.85,CN,1685225519
261,curumani,9.1999,-73.5427,82.08,94,93,2.26,CO,1685225520
262,calingasta,-31.3308,-69.4078,50.45,58,2,6.2,AR,1685225520
263,metkovic,43.0542,17.6483,73.87,81,4,6.35,HR,1685225520
264,la ronge,55.1001,-105.2842,71.82,35,75,12.66,CA,1685225521
265,paita,-5.0892,-81.1144,77.45,74,71,16.33,PE,1685225521
266,falam,22.9167,93.6833,59.4,89,0,3.29,MM,1685225522
267,hung yen,20.65,106.0667,78.08,96,6,3.91,VN,1685225522
268,bijie,27.3125,105.2942,65.84,93,84,2.46,CN,1685225523
269,sakaiminato,35.55,133.2333,69.73,83,100,5.1,JP,1685225523
270,praia da vitoria,38.7333,-27.0667,61.97,84,97,18.72,PT,1685225524
271,san vicente de tagua tagua,-34.5,-71.1333,58.84,65,4,4.94,CL,1685225524
272,kindu,-2.95,25.95,72.63,78,100,2.66,CD,1685225525
273,mount gambier,-37.8333,140.7667,51.69,88,100,8.68,AU,1685225525
274,waimea,20.0231,-155.6717,74.46,73,31,5.01,US,1685225526
275,nizhneangarsk,55.7833,109.55,40.08,65,83,1.86,RU,1685225527
276,oppdal,62.5943,9.6912,43.27,78,21,9.57,NO,1685225528
277,ust'-ilimsk,58.0006,102.6619,44.91,89,98,3.36,RU,1685225528
278,kupang,-10.1667,123.5833,75.78,88,20,11.5,ID,1685225529
279,pucon,-39.2822,-71.9543,41.77,88,2,6.04,CL,1685225446
280,swakopmund,-22.6833,14.5333,55.98,87,1,1.01,NA,1685225530
281,oranjemund,-28.55,16.4333,50.56,82,0,2.21,NA,1685225530
282,sola,-13.8833,167.55,79.12,65,2,9.26,VU,1685225531
283,garden city,42.3256,-83.331,78.66,28,100,6.91,US,1685225532
284,katsuura,35.1333,140.3,67.23,71,73,9.6,JP,1685225369
285,port augusta,-32.5,137.7667,51.15,88,30,5.28,AU,1685225533
286,sydney,-33.8679,151.2073,48.36,69,20,14.97,AU,1685225272
287,sibut,5.718,19.0739,70.92,99,100,4.72,CF,1685225241
288,kerikeri,-35.2268,173.9474,63.91,88,31,5.01,NZ,1685225438
289,horta,38.5333,-28.6333,62.02,84,82,14.0,PT,1685225535
290,punta arenas,-53.15,-70.9167,41.11,75,75,18.41,CL,1685225313
291,lejanias,3.5251,-74.0216,75.2,95,90,1.59,CO,1685225536
292,crane,31.3974,-102.3501,82.02,46,86,23.15,US,1685225536
293,pedro ii,-4.4247,-41.4586,75.51,65,84,4.18,BR,1685225276
294,enid,36.3956,-97.8784,83.88,50,20,12.66,US,1685225304
295,lorengau,-2.0226,147.2712,83.34,78,29,10.49,PG,1685225538
296,pisco,-13.7,-76.2167,71.65,73,0,8.05,PE,1685225539
297,ulsteinvik,62.3432,5.8487,48.31,83,93,24.0,NO,1685225539
298,sault ste. marie,46.5168,-84.3333,79.09,27,0,5.75,CA,1685225540
299,ola,59.5833,151.2833,59.14,56,67,8.66,RU,1685225541
300,guerrero negro,27.9769,-114.0611,67.3,59,1,21.36,MX,1685225541
301,happy valley-goose bay,53.3168,-60.3315,48.51,49,20,17.27,CA,1685225542
302,matthew town,20.95,-73.6667,85.53,66,88,1.81,BS,1685225543
303,daru,-9.0763,143.2092,78.55,81,100,10.92,PG,1685225543
304,zyryanskoye,56.8306,86.6258,44.08,73,67,2.8,RU,1685225544
305,ancud,-41.8697,-73.8203,42.24,79,55,5.66,CL,1685225544
306,quibala,-10.7337,14.98,66.65,84,98,1.16,AO,1685225545
307,iquique,-20.2208,-70.1431,66.24,77,100,5.23,CL,1685225545
308,walvis bay,-22.9575,14.5053,56.08,86,1,1.57,NA,1685225546
309,las veredas,23.1388,-109.7075,88.97,51,20,21.85,MX,1685225546
310,andergrove,-21.0833,149.1833,58.64,52,0,8.66,AU,1685225547
311,panaba,21.2833,-88.2667,87.57,47,37,14.58,MX,1685225547
312,machico,32.7,-16.7667,67.71,78,20,2.3,PT,1685225471
313,estevan,49.1334,-102.9842,82.74,44,20,10.36,CA,1685225548
314,the pas,53.8251,-101.2541,64.42,55,0,9.22,CA,1685225549
315,huarmey,-10.0681,-78.1522,74.37,77,85,8.86,PE,1685225550
316,oneonta,42.4529,-75.0638,77.22,33,0,3.18,US,1685225551
317,dehdasht,30.7949,50.5646,79.2,21,27,4.99,IR,1685225552
318,hithadhoo,-0.6,73.0833,82.71,74,100,5.46,MV,1685225552
319,atafu village,-8.5421,-172.5159,84.34,73,15,13.65,TK,1685225552
320,kone,-21.0595,164.8658,74.17,59,0,1.72,NC,1685225553
321,mizan teferi,6.9833,35.5833,62.67,95,94,3.53,ET,1685225554
322,priob'ye,62.5206,65.5964,61.34,84,100,9.82,RU,1685225554
323,las tablas,7.7667,-80.2833,82.17,99,94,8.19,PA,1685225555
324,cherlak,54.155,74.8055,50.47,42,0,3.4,RU,1685225555
325,namibe,-15.1961,12.1522,68.02,73,0,8.14,AO,1685225556
326,kodiak,57.79,-152.4072,47.71,87,100,4.61,US,1685225556
327,bakanas,44.8081,76.2772,60.21,62,15,2.37,KZ,1685225558
328,recani,31.2846,-4.2688,73.04,35,2,9.19,MA,1685225558
329,manokwari,-0.8667,134.0833,79.21,73,98,4.47,ID,1685225559
330,sisimiut,66.9395,-53.6735,24.82,66,27,4.38,GL,1685225559
331,piti village,13.4626,144.6933,83.3,85,100,14.81,GU,1685225560
332,aykhal,66.0,111.5,42.58,90,87,5.03,RU,1685225560
333,djibo,14.1022,-1.6306,95.27,12,97,5.64,BF,1685225561
334,port blair,11.6667,92.75,82.81,79,92,8.61,IN,1685225561
335,ust-tsilma,65.441,52.1498,49.12,64,56,7.27,RU,1685225562
336,diapaga,12.0708,1.7889,94.26,36,76,5.26,BF,1685225563
337,san carlos del zulia,9.0,-71.9135,89.15,57,66,9.19,VE,1685225563
338,mount pearl,47.5166,-52.7813,46.74,84,75,16.11,CA,1685225564
339,burnie,-41.0667,145.9167,52.56,91,100,6.51,AU,1685225564
340,gornyy,55.1153,83.9059,42.01,85,37,5.79,RU,1685225565
341,dryden,49.7833,-92.7503,82.69,18,0,14.97,CA,1685225565
342,zapolyarnyy,69.4154,30.8136,40.28,45,72,9.42,RU,1685225565
343,kuqa,41.7278,82.9364,62.01,37,100,2.39,CN,1685225565
344,ghansor,22.65,79.95,81.19,41,8,1.95,IN,1685225566
345,rockford,42.2711,-89.094,77.47,17,75,8.05,US,1685224902
346,vylkove,45.4021,29.586,61.65,91,79,6.4,UA,1685225566
347,rio brilhante,-21.8019,-54.5464,76.3,67,31,1.48,BR,1685225495
348,gokak,16.1667,74.8333,76.71,67,0,10.16,IN,1685225567
349,isla vista,34.4133,-119.861,74.91,68,100,8.05,US,1685225567
350,robore,-18.3333,-59.75,74.21,88,97,4.18,BO,1685225568
351,minas de marcona,-15.2119,-75.1103,64.06,72,89,12.41,PE,1685225568
352,colonia,50.9333,6.95,61.03,61,0,5.75,DE,1685225369
353,fortuna,40.5982,-124.1573,59.67,87,75,12.66,US,1685225569
354,sooke,48.3746,-123.7276,71.24,60,49,32.21,CA,1685225569
355,yemetsk,63.4721,41.7941,42.28,61,58,5.39,RU,1685225569
356,vila franca do campo,37.7167,-25.4333,63.01,84,80,8.99,PT,1685225569
357,maughold,54.2988,-4.3184,52.68,87,100,12.41,IM,1685225570
358,lubango,-14.9172,13.4925,60.37,62,0,0.13,AO,1685225570
359,peniche,39.3558,-9.3811,64.11,91,95,6.93,PT,1685225571
360,carroll,39.5501,-77.0164,75.43,35,97,1.99,US,1685225571
361,sandakan,5.8402,118.1179,76.55,92,96,4.41,MY,1685225572
362,babolsar,36.7025,52.6576,73.31,72,9,8.28,IR,1685225572
363,coquimbo,-29.9533,-71.3436,60.53,82,0,6.91,CL,1685225573
364,alo,7.4178,6.7371,75.78,95,43,3.74,NG,1685225573
365,saint-francois,46.4154,3.9054,62.04,77,0,0.0,FR,1685225508
366,mossel bay,-34.1831,22.146,58.35,56,0,4.74,ZA,1685225574
367,launceston,-41.45,147.1667,53.15,92,40,11.5,AU,1685225574
368,jayapura,-2.5333,140.7,78.19,91,100,4.85,ID,1685225574
369,egilsstadir,65.2653,-14.3948,42.71,42,0,1.14,IS,1685225574
370,ad dabbah,18.05,30.95,95.07,14,0,8.52,SD,1685225575
371,flying fish cove,-10.4217,105.6791,78.48,83,75,12.66,CX,1685225575
372,amahai,-3.3333,128.9167,85.08,84,49,3.24,ID,1685225576
373,nemuro,43.3236,145.575,50.92,85,100,16.37,JP,1685225576
374,marsa alam,25.0757,34.8918,80.17,63,69,11.01,EG,1685225576
375,whakatane,-37.9585,176.9854,63.77,77,49,5.01,NZ,1685225331
376,kingston,17.997,-76.7936,87.24,76,93,4.0,JM,1685225321
377,okahandja,-21.9833,16.9167,61.02,42,9,0.49,NA,1685225577
378,el limon,10.3059,-67.6321,81.72,79,97,2.35,VE,1685225577
379,arendal,58.4615,8.7725,51.6,75,96,12.59,NO,1685225578
380,la mohammedia,36.6745,10.1563,65.5,57,1,1.57,TN,1685225578
381,papao,-17.75,-149.55,83.88,75,5,22.73,PF,1685225451
382,alto araguaia,-17.3147,-53.2153,71.83,53,22,3.42,BR,1685225446
383,keflavik,64.0049,-22.5624,44.51,75,75,18.41,IS,1685225579
384,saint-philippe,-21.3585,55.7679,72.99,83,90,14.18,RE,1685225579
385,tyukhtet,56.5389,89.3011,42.55,76,86,3.38,RU,1685225580
386,mwanza,-2.5167,32.9,72.88,58,85,8.34,TZ,1685225580
387,opuwo,-18.0607,13.84,65.23,49,25,4.18,NA,1685225580
388,mermoz boabab,14.7065,-17.4758,81.16,83,0,16.11,SN,1685225580
389,pechora,65.1472,57.2244,54.28,70,99,7.34,RU,1685225581
390,floro,61.5996,5.0328,48.24,76,75,24.16,NO,1685225581
391,camalu,30.85,-116.0667,66.25,63,0,16.13,MX,1685225581
392,beoumi,7.6736,-5.5764,79.41,78,87,8.48,CI,1685225582
393,necochea,-38.5473,-58.7368,48.56,69,73,10.51,AR,1685225582
394,taoudenni,22.6783,-3.9836,89.58,30,86,6.53,ML,1685225583
395,saipan,15.1355,145.701,83.1,100,40,18.41,MP,1685225584
396,arraial do cabo,-22.9661,-42.0278,72.75,90,9,14.32,BR,1685225365
397,cuyo,10.8525,121.0086,83.44,77,100,14.0,PH,1685225585
398,nabire,-3.3667,135.4833,77.32,89,100,3.87,ID,1685225586
399,alice springs,-23.7,133.8833,33.35,86,10,6.67,AU,1685225586
400,santyoku,37.4406,129.1708,66.31,90,100,6.4,KR,1685225587
401,amga,60.8953,131.9608,47.44,57,8,3.78,RU,1685225587
402,borogontsy,62.6683,131.1683,46.15,52,39,3.53,RU,1685225588
403,cockburn town,21.4612,-71.1419,82.09,84,26,13.24,TC,1685225588
404,mailag,7.9703,125.1375,73.17,97,100,2.68,PH,1685225589
405,lewiston orchards,46.3804,-116.9754,74.12,51,75,9.22,US,1685225590
406,grand falls-windsor,48.9332,-55.6649,40.73,94,100,13.78,CA,1685225452
407,priladozhskiy,59.85,31.4833,43.54,1,2,6.69,RU,1685225590
408,zungeru,9.8128,6.1558,83.98,68,82,4.76,NG,1685225591
409,xixiang,35.1628,112.865,64.49,94,100,0.34,CN,1685225591
410,utraula,27.3167,82.4167,79.65,57,0,4.65,IN,1685225592
411,port-vila,-17.7338,168.3219,80.2,61,20,2.3,VU,1685225593
412,mthatha,-31.5889,28.7844,49.41,54,0,5.3,ZA,1685225593
413,juankoski,63.0667,28.35,45.25,63,15,5.23,FI,1685225593
414,ribeira brava,32.65,-17.0667,67.71,78,48,5.75,PT,1685225594
415,menongue,-14.6585,17.691,65.82,48,87,3.0,AO,1685225595
416,kyshtovka,56.555,76.6271,47.52,53,28,4.52,RU,1685225595
417,sinabang,2.4803,96.3801,79.61,83,22,5.48,ID,1685225596
418,cascais,38.6979,-9.4215,65.52,83,5,10.0,PT,1685225577
419,campbellton,48.0075,-66.6727,69.48,57,10,4.03,CA,1685225453
420,tomatlan,19.9333,-105.25,93.15,36,0,10.94,MX,1685225471
421,talodi,10.6325,30.3797,89.58,37,41,10.78,SD,1685225598
422,slyudyanka,51.6594,103.7061,43.02,90,98,1.88,RU,1685225599
423,isangel,-19.55,169.2667,77.11,78,40,0.0,VU,1685225599
424,gracemere,-23.4333,150.45,53.51,62,0,4.61,AU,1685225600
425,chinde,26.8418,88.0763,59.27,83,64,4.63,NP,1685225600
426,prado,-17.3411,-39.2208,71.76,88,2,6.4,BR,1685225469
427,monrovia,6.3005,-10.7969,82.17,86,100,6.98,LR,1685225601
428,sao felix do xingu,-6.6447,-51.995,78.8,77,40,2.68,BR,1685225393
429,wanning,18.8003,110.3967,79.97,88,38,3.8,CN,1685225602
430,ghat,24.9647,10.1728,77.9,19,82,5.86,LY,1685225603
431,uryupinsk,50.8047,42.0138,61.61,96,100,8.63,RU,1685225604
432,island harbour,50.724,-1.2758,55.33,89,14,8.99,GB,1685225604
433,yongchuan,29.3514,105.8947,69.78,97,100,3.94,CN,1685225605
434,inhambane,-23.865,35.3833,68.38,78,100,5.39,MZ,1685225605
435,acarau,-2.8856,-40.12,79.14,87,14,11.65,BR,1685225468
436,callao,-12.0667,-77.15,75.72,73,100,11.5,PE,1685225607
437,plettenberg bay,-34.0527,23.3716,55.76,46,0,4.12,ZA,1685225607
438,aksu,41.1231,80.2644,61.07,53,98,2.13,CN,1685225608
439,mont-laurier,46.5501,-75.4993,82.02,42,3,7.36,CA,1685225609
440,howard springs,-12.497,131.047,64.81,48,39,8.3,AU,1685225609
441,dhuusamarreeb,5.535,46.3861,78.15,60,71,16.49,SO,1685225609
442,bria,6.5423,21.9863,69.28,97,100,5.97,CF,1685225610
443,montluel,45.85,5.05,68.34,66,0,8.05,FR,1685225611
444,la sarre,48.8002,-79.1996,76.17,46,9,9.93,CA,1685225611
445,brigantine,39.4101,-74.3646,68.2,45,0,10.36,US,1685225612
446,susuman,62.7833,148.1667,41.59,53,13,2.48,RU,1685225339
447,blaubeuren,48.4122,9.7843,57.31,84,0,6.53,DE,1685225613
448,holly springs,35.6513,-78.8336,59.99,92,100,7.0,US,1685225568
449,igrim,63.1906,64.4162,63.05,80,100,7.9,RU,1685225614
450,ta`u,-14.2336,-169.5144,82.96,75,64,10.31,AS,1685225614
451,kalmunai,7.4167,81.8167,81.28,81,10,4.05,LK,1685225615
452,castillos,-34.1667,-53.8333,52.75,55,89,12.66,UY,1685225615
453,jasper,37.2001,-94.3502,79.95,35,0,8.05,US,1685225616
454,kapuskasing,49.4169,-82.4331,87.8,19,0,17.27,CA,1685225616
455,tamanrasset,22.785,5.5228,80.51,13,0,6.91,DZ,1685225617
456,marsh harbour,26.5412,-77.0636,82.58,64,3,7.29,BS,1685225617
457,hadibu,12.65,54.0333,85.3,72,33,8.86,YE,1685225618
458,golfito,8.639,-83.166,83.98,78,90,3.62,CR,1685225619
459,juhaynah,26.6732,31.4976,80.92,40,94,12.93,EG,1685225619
460,pathein,16.7833,94.7333,80.69,82,22,6.44,MM,1685225620
461,palu,-0.8917,119.8707,75.6,96,92,2.84,ID,1685225621
462,colchani,-20.3,-66.9333,45.5,33,100,2.95,BO,1685225621
463,punta del este,-34.9667,-54.95,55.51,64,75,15.01,UY,1685225510
464,colares,38.7992,-9.4469,65.34,83,13,10.0,PT,1685225622
465,yigo village,13.5361,144.8886,81.73,85,100,15.86,GU,1685225623
466,hola,51.5377,23.1902,49.82,82,37,6.62,PL,1685225623
467,amalapuram,16.5833,82.0167,82.2,83,4,3.11,IN,1685225624
468,borgarnes,64.5383,-21.9206,44.82,81,82,11.59,IS,1685225624
469,lingyuan,41.24,119.4011,60.73,75,94,2.21,CN,1685225625
470,sandpoint,48.2766,-116.5533,71.85,65,78,1.99,US,1685225625
471,kurchatov,51.6601,35.6521,59.41,87,88,10.98,RU,1685225625
472,vostochnyy,55.8167,37.8667,54.7,63,54,11.01,RU,1685225626
473,vicente guerrero,19.1194,-98.1708,70.99,26,46,7.85,MX,1685225626
474,grand rapids,42.9634,-85.6681,77.41,26,75,5.75,US,1685225473
475,salekhard,66.53,66.6019,50.74,75,100,17.56,RU,1685225626
476,hagere maryam,5.6333,38.2333,56.68,95,100,4.21,ET,1685225627
477,vila velha,-20.3297,-40.2925,72.95,91,0,3.44,BR,1685225551
478,gbadolite,4.2833,21.0167,69.37,97,97,1.14,CD,1685225627
479,ar rutbah,33.0381,40.2848,82.51,16,100,13.42,IQ,1685225628
480,tutoia,-2.7619,-42.2744,79.12,86,25,5.35,BR,1685225628
481,gagliano del capo,39.8442,18.3695,64.81,78,0,11.7,IT,1685225629
482,juba,4.8517,31.5825,74.32,79,95,3.76,SS,1685225602
483,vorkuta,67.5,64.0,50.76,90,100,4.12,RU,1685225629
484,dzhambeyty,50.2536,52.595,70.54,29,97,8.5,KZ,1685225630
485,fort bragg,35.139,-79.006,61.2,95,100,20.71,US,1685225630
486,hami,42.8,93.45,68.23,19,51,5.82,CN,1685225631
487,oum hadjer,13.2954,19.6966,96.82,23,61,5.23,TD,1685225631
488,geraldton,-28.7667,114.6,43.21,70,100,0.0,AU,1685225586
489,kota kinabalu,5.9749,116.0724,76.98,88,20,3.44,MY,1685225632
490,zwedru,6.0667,-8.1281,74.43,99,100,3.2,LR,1685225633
491,illizi,26.4833,8.4667,76.8,19,73,7.76,DZ,1685225634
492,pangai,-19.8,-174.35,77.76,83,10,20.42,TO,1685225634
493,kholmsk,47.0511,142.0569,51.96,96,100,12.59,RU,1685225634
494,grangemouth,56.0114,-3.7218,52.99,74,4,5.01,GB,1685225635
495,willard,41.0531,-82.7263,74.98,28,100,10.42,US,1685225635
496,huaiyuan chengguanzhen,32.9589,117.1657,76.14,92,1,1.95,CN,1685225636
497,yazman,29.1212,71.7446,89.19,43,41,13.53,PK,1685225636
498,pizarro,4.9533,-77.366,83.26,78,64,7.9,CO,1685225636
499,jurilovca,44.7667,28.8667,61.03,87,82,9.82,RO,1685225636
500,taulaga,-11.0553,-171.0883,83.57,75,10,11.54,AS,1685225637
501,dirba,30.0667,75.9833,83.17,43,2,4.03,IN,1685225637
502,el porvenir,13.7617,-87.3458,88.93,55,97,2.15,HN,1685225637
503,severo-yeniseyskiy,60.3725,93.0408,34.77,87,45,3.27,RU,1685225638
504,zalingei,12.9096,23.4741,86.92,29,75,2.48,SD,1685225638
505,la union,-5.4,-80.75,85.46,51,80,15.41,PE,1685225639
506,ende,-8.8432,121.6623,74.08,85,79,5.35,ID,1685225639
507,mahanoro,-19.9,48.8,71.53,86,89,3.98,MG,1685225639
508,pauini,-7.7136,-66.9764,78.13,92,96,3.0,BR,1685225640
509,kassala,15.451,36.4,93.04,33,75,14.12,SD,1685225640
510,remontnoye,46.5614,43.6501,62.46,87,33,5.77,RU,1685225640
511,taquara,-29.6506,-50.7806,66.78,96,100,5.32,BR,1685225640
512,shakawe,-18.3667,21.85,63.59,33,27,3.33,BW,1685225641
513,hongjiang,27.11,109.9956,76.21,89,20,3.36,CN,1685225641
514,chistyye bory,58.3647,41.6278,50.31,83,88,8.59,RU,1685225649
515,tofol,5.3248,163.0078,80.91,82,99,17.94,FM,1685225650
516,eenhana,-17.4667,16.3333,70.86,40,36,5.28,NA,1685225650
517,kabompo,-13.5927,24.2008,57.7,42,1,5.01,ZM,1685225651
518,icano,-28.9193,-65.3282,52.7,69,100,3.96,AR,1685225651
519,bodaybo,57.8506,114.1933,44.96,60,96,0.45,RU,1685225652
520,kailua-kona,19.6406,-155.9956,82.51,75,0,10.36,US,1685225652
521,broome,42.2506,-75.833,79.18,29,0,6.91,US,1685225653
522,wainwright,52.839,-110.8572,68.83,47,100,12.91,CA,1685225654
523,nam som,17.7704,102.1895,76.42,88,99,2.33,TH,1685225655
524,chhor,25.5167,69.7667,84.97,70,69,15.5,PK,1685225655
525,santa cruz del sur,20.7147,-77.9956,84.13,69,14,7.23,CU,1685225656
526,santana,-0.0583,-51.1817,80.78,94,75,2.3,BR,1685225530
527,salamanca,40.8333,-6.0,56.98,94,100,4.25,ES,1685225656
528,kokpekty,48.75,82.4,42.39,53,75,6.89,KZ,1685225657
529,cobija,-11.0267,-68.7692,76.37,96,99,1.45,BO,1685225657
530,tromso,69.6496,18.957,41.02,87,100,3.44,NO,1685225658
531,diyarbakir,37.9158,40.2189,62.58,55,0,3.44,TR,1685225658
532,taltal,-25.4,-70.4833,63.88,79,40,4.03,CL,1685225659
533,hastings,50.8552,0.5729,52.52,42,30,12.77,GB,1685225452
534,gorontalo,0.5412,123.0595,75.81,93,98,3.96,ID,1685225659
535,namikupa,-10.8333,39.6,63.21,95,1,2.06,TZ,1685225660
536,beidao,34.5686,105.8933,58.15,89,100,2.08,CN,1685225660
537,tejen,37.3834,60.5054,79.34,14,100,7.07,TM,1685225661
538,hammerfest,70.6634,23.6821,45.05,57,0,6.91,NO,1685225661
539,hanceville,34.0607,-86.7675,80.17,53,4,4.88,US,1685225646
540,barranca,-10.75,-77.7667,72.37,78,77,8.37,PE,1685225526
541,tralee,52.2704,-9.7026,51.53,94,29,3.38,IE,1685225662
542,sint michiel liber,12.15,-68.9833,84.02,79,20,11.5,CW,1685225663
543,waddan,29.1614,16.139,70.39,45,0,6.91,LY,1685225663
544,gorom-gorom,14.4439,-0.2361,95.18,12,84,4.81,BF,1685225664
545,lichinga,-13.3128,35.2406,57.29,88,0,6.91,MZ,1685225664
546,shadegan,30.6497,48.6647,84.15,16,60,10.76,IR,1685225665
547,al awjam,26.5632,49.9433,84.31,34,0,0.0,SA,1685225665
548,camiri,-20.05,-63.5167,67.01,97,98,4.68,BO,1685225666
549,lensk,60.7253,114.9278,46.11,78,100,3.15,RU,1685225667
550,kourou,5.1552,-52.6478,77.05,86,93,4.97,GF,1685225667
551,spasskoye,44.6108,132.7969,57.11,91,90,8.99,RU,1685225668
552,laojunmiao,39.8333,97.7333,51.03,42,100,7.52,CN,1685225668
553,sorong,-0.8833,131.25,77.0,86,91,11.95,ID,1685225669
554,aripuana,-9.1667,-60.6333,83.32,55,51,0.67,BR,1685225669
555,sao tome,0.3365,6.7273,79.63,85,100,12.1,ST,1685225669
556,puquio,-14.7,-74.1333,54.9,60,100,3.67,PE,1685225670
557,massawa,15.6097,39.45,89.49,71,91,1.77,ER,1685225670
558,gassol,8.5333,10.4667,80.91,72,31,6.64,NG,1685225671
559,rajin,42.2489,130.3003,63.21,69,99,3.49,KP,1685225671
560,severoural'sk,60.1533,59.952,61.0,83,100,3.29,RU,1685225672
561,essaouira,31.5125,-9.77,65.7,77,40,2.3,MA,1685225673
562,antibes,43.5624,7.1278,72.14,66,0,3.44,FR,1685225673
563,san ignacio,17.1561,-89.0714,93.34,46,40,4.61,BZ,1685225674
564,kristiansund,63.1115,7.732,48.25,66,40,17.27,NO,1685225674
565,dzhalagash,45.0833,64.6667,69.53,30,0,11.21,KZ,1685225675
566,aginskoye,51.1,114.53,45.32,59,63,1.61,RU,1685225675
567,polyarnyy,69.1989,33.4478,43.21,54,34,10.38,RU,1685225676
568,likisa,-8.6695,125.6875,59.4,85,16,4.61,TL,1685225677
569,san julian,21.0167,-102.1667,82.02,24,67,15.61,MX,1685225677
570,torghay,49.6339,63.4981,61.86,34,9,6.58,KZ,1685225678
571,winslow,35.0242,-110.6974,84.38,8,0,19.57,US,1685225650
572,tangalle,6.024,80.7911,80.76,85,8,11.92,LK,1685225679
573,barah,13.7,30.3667,91.72,29,47,6.89,SD,1685225679
574,temirgoyevskaya,45.1141,40.2803,59.83,91,0,1.48,RU,1685225680
575,saldanha,-33.0117,17.9442,44.65,75,0,3.98,ZA,1685225680
576,al ghayzah,16.2079,52.176,83.71,78,1,9.17,YE,1685225681
577,santa ana,33.7456,-117.8678,79.65,62,75,11.5,US,1685225622
578,cockermouth,54.6621,-3.3609,55.62,80,100,3.0,GB,1685225682
579,chandler,33.3062,-111.8412,97.63,11,0,9.22,US,1685225682
